stop_id,stop_code,stop_name,stop_lat,stop_lon,zone_id,location_type
16,,Errenteria - Beraun Kalea 15,43.31121250697871,-1.9073207373134937,1,0
24,,Donostia - Mirakruz K. 26,43.324096971243165,-1.9722974329207088,1,0
27,,Donostia - Mirakruz Gaina,43.3231545225077,-1.9468942026405822,1,0
28,,Donostia -  Jose Elosegi 134 - Herrera,43.321828696776464,-1.9369272796414045,1,0
30,,Pasaia - Nafarroa Hiribidea 5,43.321232383588274,-1.9175132121404708,1,0
31,,Errenteria - Kaputxinoak,43.31932363424898,-1.9099502175142973,1,0
34,,Errenteria -  Gamon Zumardia,43.314456548560585,-1.8953872626920039,1,0
37,,Errenteria - Nafarroa Hirib. - Lartzabal,43.31238609662014,-1.8880137174198093,1,0
38,,Oiartzun - Lintzirin Pol,43.3163468175059,-1.8740803281802625,1,0
39,,Oiartzun - Lanbarren Pol.,43.32252288451482,-1.8657769952708307,1,0
42,,Irun - Gaintxurizketa Gaina,43.33195648949473,-1.8474564341969295,9,0
43,,Irun - Letxumborro 59-aranibar,43.33191140935421,-1.8218248820185783,9,0
45,,Irun - Elizatxo Hiribidea 60,43.33286235527713,-1.8127770424866396,9,0
47,,Irun - Luis Mariano,43.34131246764582,-1.7933666163022721,9,0
50,,Hondarribia - Kaputxinoak,43.354715567008384,-1.796358745010186,9,0
51,,Hondarribia - Aireportua,43.358837422536055,-1.791884014676527,9,0
52,,Hondarribia - Sabin Arana Kalea 3,43.36361160893578,-1.788654515377226,9,0
53,,Hondarribia - Sabin Arana - Ama Guadalupekoa Ikastetxea,43.36744552213678,-1.791021994004792,9,0
54,,Hondarribia - Itsasargi 3,43.371260224180574,-1.7924273850645303,9,0
55,,Hondarribia - Bernat Etxepare Kalea - Correos,43.367864202528786,-1.791445661737057,9,0
56,,Hondarribia - Sabin Arana Kalea,43.363765566344654,-1.788737842691336,9,0
57,,Hondarribia - Aeropuerto Exterior,43.35861638486346,-1.7931224539468478,9,0
58,,Hondarribia - N-638 - Amute,43.353202055746415,-1.7971413668005385,9,0
78,,Pasaia - Renfe,43.320860586893936,-1.916286522008228,1,0
79,,Errenteria -  Gamon Zumardia,43.314675238098225,-1.895654597718436,1,0
80,,Errenteria - Nafarroa Hiribidea - Lartzabal,43.31261606264602,-1.8894399481566728,1,0
82,,Oiartzun - Gi-636 - Lintzirin,43.3153654508321,-1.8759235544535444,1,0
83,,Oiartzun - Lanbarren Pol.,43.321476401305524,-1.8664871146919195,1,0
84,,Lezo - Gaintxurizketa Gaina,43.33185684128861,-1.849185236241566,1,0
85,,Irun - Letxunborro 59 - Suhiltzaileak,43.33206712239108,-1.82208090996405,9,0
89,,Irun - Elizatxo Hirib. 14 - La Salle,43.33717161253486,-1.7977539535896903,9,0
90,,Irun - Gipuzkoa Hirib. 6,43.34163616902665,-1.7933231935140626,9,0
91,,Irun - Hondarribia K. 25 - Gurutze Gorria,43.34515683140922,-1.7984476668961322,9,0
95,,Donostia - Nafarroa Hirib. 31,43.325166230156654,-1.966050837021395,1,0
96,,Donostia -  Zurriola - Kursaal,43.32659292775321,-1.9754992172447658,1,0
100,,Irun - Colon-zabaltza,43.3419837805423,-1.7912806765361433,9,0
102,,Hondarribia - Mendelu Kalea 17,43.34902573048148,-1.7998766495063052,9,0
104,,Hondarribia - Itsasargi K. 20 - La Muela,43.37313026754113,-1.7921557500099519,9,0
105,,Hondarribia - Mendelu Kalea 2,43.34911769784266,-1.8000599163969293,9,0
106,,Irun - Zubiaurre Kalea 5,43.343636363190704,-1.7977127335733147,9,0
108,,Donostia - Jai Alai,43.32394233387526,-1.965134245990878,1,0
111,,Donostia -  Oleta / Escalerillas,43.32313010403042,-1.9297142250619967,1,0
112,,Errenteria -  Lartzabal,43.312308744404895,-1.8828483641161102,1,0
113,,Oiartzun -  Arragua,43.31066833742051,-1.8808438236713374,1,0
114,,Oiartzun -  Talaia,43.30615326850561,-1.8822952911143151,1,0
115,,Oiartzun - Mamut Merk.gunea,43.30397919436105,-1.8809665528100556,1,0
116,,Oiartzun -  Ugaldetxo,43.30037950032386,-1.874757239668163,1,0
126,,Oiartzun -  Iparralde Etorb. - Eliza,43.30198650368971,-1.85882307768972,1,0
130,,Oiartzun -  Arraskularre,43.298571265414054,-1.8567664742829928,1,0
131,,Oiartzun -  Altzibar,43.295330747251185,-1.8559765748528196,1,0
132,,Oiartzun -  Peñene,43.29449986300376,-1.8584330112996272,1,0
133,,Oiartzun -  Iturriotz,43.29505489627134,-1.8644385375820725,1,0
134,,Oiartzun - Ibarre,43.29814526337806,-1.8709889969464082,1,0
135,,Oiartzun - Ugaldetxo,43.300929128507065,-1.8757087545068847,1,0
136,,Oiartzun -  Mamut,43.30305486733834,-1.88036704329102,1,0
137,,Oiartzun -  Arragua,43.310819335235564,-1.8806314278574376,1,0
138,,Errenteria -  Diputazio Pl.,43.316837259749754,-1.901362198211648,1,0
139,,"Errenteria -  Kaputxinoak, Biribilgunea",43.319541039200786,-1.9110316035702881,1,0
140,,Pasaia -  Oleta / Escalerillas,43.32325198880988,-1.9302300880884276,1,0
142,,Donostia -  Nafarroa Hirib. 7 - Okendo Kultur Etxea,43.32737170271075,-1.968973645068619,1,0
147,,Lezo - Jaizkibel Etorb. - Ijurko,43.323324104270014,-1.8961269331086015,1,0
151,,Lezo - Lezo Erdia,43.32341865524267,-1.896593891268261,1,0
152,,Lezo - Altamira,43.31909047817374,-1.9006433067704234,1,0
159,,Donostia - Jose Elosegi 102 - Contadores,43.32305236094165,-1.9436276252974498,1,0
160,,Donostia - Bidebieta,43.323788470179394,-1.9385211278310281,1,0
162,,Pasai San Pedro - Euskadi Etorbidea 3,43.324221379691714,-1.935689194905939,1,0
163,,Pasai San Pedro - Euskadi Etorbidea-azoka,43.32470190606573,-1.93217803489097,1,0
164,,Pasai San Pedro - Gudarien Plaza,43.32494051362299,-1.928806742629463,1,0
169,,Pasai San Pedro - Gudarien Plaza,43.325052360516985,-1.9292117914854165,1,0
170,,Pasai San Pedro - Euskadi Etorbidea 25,43.32480856042763,-1.9320281619541515,1,0
171,,Pasai San Pedro - Euskadi Etorbidea 1,43.324317084339924,-1.935329848960868,1,0
172,,Donostia - Bidebieta,43.3239336631435,-1.9386419350495974,1,0
173,,Donostia - Jose Elosegi 283- Contadores,43.32326102551435,-1.9437966771539101,1,0
174,,Donostia -  Mirakruz Gaina,43.32328003005085,-1.9487913801570678,1,0
177,,Donostia - Ategorrieta 65,43.323840176301516,-1.9608192446174388,1,0
179,,Errenteria -  Sorgintxulo 11,43.31820963198282,-1.9083299276083683,1,0
180,,Errenteria - Kristobal Gamon Ikastetxea,43.31949786106984,-1.906506296417417,1,0
181,,Errenteria - Alaberga.telefonica,43.31708236011704,-1.906265977117832,1,0
182,,Errenteria - Beraungo Anbulategia,43.316020676092585,-1.9091830255216977,1,0
185,,Errenteria - Pontika,43.311203426128266,-1.9026104733801963,1,0
189,,Errenteria - Galtzaraborda- Anbulategia,43.315399402625864,-1.9101313569889096,1,0
191,,Errenteria - Alaberga - Telefónica,43.316788210348136,-1.9065795557111702,1,0
192,,Errenteria - Versalles Dorrea,43.31960943266282,-1.9068742751567813,1,0
193,,Errenteria - Sorgintxulo 11,43.31825382282838,-1.9082428096801685,1,0
198,,Donostia - Antso Jakitunaren Hiribidea 26,43.3106821691333,-1.9785409764802537,1,0
202,,Donostia - Tolosa Hiribidea - Amerika Plaza,43.30422970764316,-2.0024327678237275,1,0
203,,Donostia - Tolosa Hiribidea 77 - Unibertsitateak,43.309060842887625,-2.007113347475184,1,0
205,,Donostia - Tolosa Hiribidea 138,43.304116857899395,-2.0029154656924124,1,0
208,,Pasaia - Nafarroa Hiribidea 24,43.32001172904483,-1.9141310477809708,1,0
214,,Irun - Puiana,43.342363259474034,-1.8111607781930843,9,0
216,,Errenteria -  Nafarroa Hirib. 75,43.31670114972669,-1.9012536620021305,1,0
217,,Donostia - Mendeurrenaren Plaza - Centenario,43.314549150232956,-1.9789941337872994,1,0
218,,Donostia - Aita Donostia Plaza - Anoeta,43.30487031237502,-1.9740763135106183,1,0
258,,Donostia - Toribio Altzaga Kalea - Arcco,43.30688942049537,-1.9723038093615508,1,0
298,,Donostia - Zumalakarregi Hiribidea 4,43.31697992476216,-2.0003497097848264,1,0
345,,Irun - Larreaundi,43.335323710087046,-1.7881808167083784,9,0
346,,Donostia - Tolosa Hiribidea - Magisteritza,43.31317413307454,-2.0079465715474845,1,0
349,,Donostia - Miramon Pasealekua -poliklinika Ii,43.29214153723874,-1.9785061946548699,1,0
350,,Donostia - Begiristain Doktorea 115 - Ospitalea,43.29466907919229,-1.969168849704093,1,0
351,,Donostia - Begiristain Doktorea - Ospitalea Ii,43.294922056490286,-1.9692631977028734,1,0
355,,Donostia - Tolosa Hiribidea - Zubimusu Parkea,43.31474060524789,-2.0048011679069937,1,0
356,,Donostia - Tolosa Hiribidea 112,43.3067867817172,-2.005510462410771,1,0
377,,Donostia - Tolosa Hiribidea - Lorea,43.306899749450054,-2.0050400762851366,1,0
380,,Donostia - Zumalakarregi Hiribidea 11 - Esklabak,43.316685189277095,-2.000625847755013,1,0
421,,Donostia - Tolosa Hiribidea 70- Unibertsitatea,43.30892846946877,-2.007423765460802,1,0
630,,Donostia - Kasares Pas. - Darieta,43.32207434267033,-1.9246761629623175,1,0
631,,Donostia - Kasares Pas. - Oleta,43.321648410141044,-1.9282232692431405,1,0
632,,Donostia - Altza Pas. - Sta. Barbara,43.319413245838106,-1.9289655217252217,1,0
633,,Donostia - Larratxo Pas.- Nerecan,43.318512434566166,-1.9327797386987724,1,0
641,,Donostia - Larratxo Pas. - Nerecan,43.31840175155012,-1.9324980303342185,1,0
642,,Donostia - Altza Pas. - Sta. Barbara,43.319446832625026,-1.9287059464146297,1,0
646,,Donostia - Kasares Pas. - Oleta,43.32162117000839,-1.9281990819887698,1,0
647,,Donostia - Kasares Pas. - Darieta,43.32224412408284,-1.9245375030217826,1,0
648,,Donostia - Buenavista,43.32279121222687,-1.920482526438376,1,0
649,,Donostia - Herrera,43.321799444969024,-1.9376554432889002,1,0
650,,Donostia -  Gaiztarro,43.32259742007219,-1.9421431824849458,1,0
651,,Donostia - Jose Elosegi 111,43.32238920941078,-1.9420234631399522,1,0
653,,Donostia - Gipuzkoa Plaza 10,43.3231707978515,-1.9804900895151631,1,0
654,,Donostia - Gipuzkoa Plaza 11,43.32292628359141,-1.9803338451431598,1,0
707,,Donostia - Zorroaga 39 - Illunbe,43.30265252984127,-1.9667777086799705,1,0
709,,Donostia - Donostia Ospitalea/ospitalea,43.29543467398096,-1.9671957983715025,1,0
714,,Donostia - Zorroaga 39 - Illunbe,43.30279580058845,-1.9666889772367593,1,0
734,,Donostia - Barcelona Hiribidea 15,43.31107914490663,-1.9705931949753106,1,0
736,,Donostia - Barcelona Hiribidea 28,43.31300504033618,-1.9704743668459692,1,0
817,,Pasai Donibane- Juan Xxiii - Frontoia,43.32548037546761,-1.9134909449385287,1,0
818,,Pasai Donibane - Lezo Bidea - Meipi,43.324583044774705,-1.9109785369945866,1,0
819,,Lezo - Kiroldegia,43.320871605607266,-1.8985885913689524,1,0
824,,Lezo - Kiroldegia,43.32081853807736,-1.8986882133176854,1,0
827,,Donostia - Leosiñeta Kalea - Bianka,43.31543958449021,-1.9363974177898822,1,0
833,,Errenteria -  Avda. Galtzaraborda 53,43.31319590892634,-1.910405034368901,1,0
846,,Donostia - Colon Pasealekua 13 - Gros,43.32490265807072,-1.9757866341985189,1,0
1287,,Irun - Colon 52-topo,43.342679628408504,-1.79493104838237,9,0
1288,,Hondarribia - N-638 - Amute,43.353073424562695,-1.796897119453494,9,0
1290,,Hondarribia - Kosta Kalea 3 Dir. Hondarribia,43.35999394953764,-1.7956743754906317,9,0
1292,,Hondarribia - Ramon Iribarren Pas. - Lurgorri,43.38555703992281,-1.7947856328044391,9,0
1294,,Hondarribia - Ramón Iribarren 15- Iterlimen,43.38220242211601,-1.7968767280956937,9,0
1296,,Hondarribia - Ramon Iribarren Pas 15 - Iterlimen,43.38260022013486,-1.7970293507771555,9,0
1297,,Hondarribia - Foru Kalea 3,43.37396631602352,-1.7928797738642592,9,0
1477,,Irun - Paseo Colon,43.3420270893867,-1.7919706987162776,9,0
1483,,Irun - Colon Pas. 43,43.34267296525154,-1.795153251615238,9,0
1701,,Astigarraga - Donostia Ibilbidea - Lekueder,43.28234069353031,-1.9492500882969783,1,0
1702,,Astigarraga - Donostia Ibilbidea 38 - Hezegunea,43.28500431317454,-1.948082603402181,1,0
1708,,Pasai San Pedro - Esnabide Kalea 6,43.32675786819043,-1.924803220929587,1,0
1715,,Errenteria - Galtzaraborda Etorb. 61,43.313565068214224,-1.9113479591753386,1,0
1716,,Errenteria - Galtzaraborda Etorb. - Koldo Mitxelena,43.31283044742193,-1.9070204594752085,1,0
1717,,Errenteria - Plaza Urbia 1,43.313399278678425,-1.9043590124510514,1,0
1718,,Errenteria - Morrongilleta 22,43.31364915509412,-1.901308653846256,1,0
1727,,Donostia - Okendo Kalea 16,43.323704608811035,-1.979765818670275,1,0
1781,,Donostia - Begiristain Doktorea 121 - Onkologikoa,43.29353506829966,-1.9722328743562867,1,0
2126,,"Hondarrbia - Jaitzubia-bidasoa Ospitalea, Hondarribirantz",43.34597143349114,-1.8152482545418602,9,0
2864,,Donostia - Urumea Pasalekua 15,43.310676637730346,-1.974903462310515,1,0
3940,,Donostia - Begiristain Doktorea 218 - Onkologikoa,43.293431902203125,-1.972777016727499,1,0
4014,,Donostia - Buenavista,43.32265593474023,-1.9204602553754495,1,0
4038,,Donostia - Tolosa Hiribidea 13 - Magisteritza,43.31415400591716,-2.005686283302328,1,0
4047,,Hondarribia - Foru Kalea-arroka,43.376667127960836,-1.7953937853163333,9,0
4050,,Donostia -  Jose Elosegi 2 - Ategorrieta,43.3235885061182,-1.9579005003718644,1,0
4051,,Donostia - Alto De Miracruz,43.323116047896754,-1.948584540372198,1,0
4054,,Hondarribia - Foru Kalea- Arroka,43.37654252295203,-1.7955320380939115,9,0
4056,,Irun - Fermin Calbetón,43.341224407041175,-1.7875946414189117,9,0
4058,,Hondarribia - Minasoroeta-zumardia,43.36322908823431,-1.7907972010358373,9,0
4068,,Hondarribia - Zubieta 16 - Gibeleta,43.346103177750415,-1.8036849859434612,9,0
4070,,Irun - Letxunborro Puiana Biribilgunea,43.34170314103469,-1.8100263092290787,9,0
4071,,Irun - Bidasoa Ospitalea,43.34355047162048,-1.8136297804241195,9,0
4072,,"Irun - Aldabe Mendia, 13",43.34150741045886,-1.8093886049106818,9,0
4104,,Pasaia - San Roke,43.32612893961408,-1.913516386364877,1,0
4105,,Oiartzun -  Astigarragako Bidea 3,43.30140535474536,-1.8792753800044244,1,0
4106,,Oiartzun - Aristegi,43.301469945138784,-1.8794344702571875,1,0
4107,,Oiartzun -  Rafael Pikabea 37,43.300766431302236,-1.8701637741688526,1,0
4108,,Oiartzun -  Rotonda Karaez Kalea 20,43.30109080927429,-1.8665453974527901,1,0
4109,,Oiartzun -  Rafael Pikabea 25,43.30110468569955,-1.8625012579690001,1,0
4112,,Donostia - Garbera Merk.gunea,43.310106581295244,-1.9468482532082252,1,0
4137,,Hondarribia - Kosta Kalea 17,43.35765480883281,-1.796720212456882,9,0
4146,,Donostia - Maria Cristina Zubia,43.31958747275049,-1.977516172944677,1,0
4166,,Errenteria -  Nafarroa Hirib. - Lartzabal,43.31268448429475,-1.8835196998879928,1,0
4178,,Irun - Hondarribia Kalea,43.34436647838939,-1.7977846865585343,9,0
4300,,Oiartzun - Caserio Mendin,43.30533987927014,-1.8728162746272612,1,0
4302,,Irun - Elizatxo 11,43.338169217070735,-1.7950079265020653,9,0
4478,,Astigarraga - Donostia Ibilbidea - Pelotari Biribilgunea,43.28490527885385,-1.9480843099954088,1,0
4479,,Astigarraga - Donostia Ibilbidea- Industrialgunea,43.2823171930272,-1.9496325719030405,1,0
4725,,Hondarribia - Madalengain,43.36995742892462,-1.7944034030321143,9,0
4726,,Hondarribia - Baserritar Etorb. 64 -talaia,43.373104602744746,-1.7982662777031746,9,0
4727,,Donostia - Loiolako Erribera,43.31112813183645,-1.9720350905144006,1,0
4728,,Irun - Letxunborro Hirib. - Gibanaka,43.34555095235729,-1.8042633746149785,9,0
4729,,Hondarribia - Sokoa,43.373714306584574,-1.7954522407501563,9,0
4730,,Hondarribia - Santa Engrazia 8,43.36230882943078,-1.7940365550198154,9,0
4795,,Donostia - Urbieta 50,43.31654710069168,-1.9798855843060474,1,0
4807,,Donostia- Bizkaia Pasealekua 12,43.3116011225494,-1.9775884247276458,1,0
5012,,Irun - Txingudi Merk. Gunea,43.322275641027865,-1.83491163117656,9,0
5275,,Hondarribia - Sabin Arana Goiri 8 Parean,43.36651565110032,-1.7899420141181417,9,0
5674,,"Hondarribia - Jaitzubia-bidasoa Ospitalea, Donostirantz",43.346187240662694,-1.8152193808999775,9,0
5837,,Carretera Del Molino S/n (molino),43.33309049335745,-1.8130686465869246,9,0
5839,,Carretera Del Molino S/n (porcelanas),43.333206375470844,-1.8129553709762831,9,0
5850,,Donostia - Renfe Geltokia,43.31985178606474,-1.9758591549162168,1,0
5864,,Hondarribia - Hondarribia -minasoroeta Kalea 17,43.36301889073978,-1.7922082987886838,9,0
5921,,Donostia - Riberas De Loiola 12-14,43.31330711466246,-1.9720230237285399,1,0
5970,,Irun - Araso Biribilgunea,43.32506846341449,-1.8324038358735166,9,0
5971,,Irun - Araso -dentro Del Polígono,43.32663579882593,-1.8342239221989243,9,0
5973,,Irun - Elizatxo Hiribidea 54,43.33336018955868,-1.8086966550887733,9,0
5974,,Irun - Gobaragin Kalea-lavanderas,43.33563103380015,-1.8062714340105905,9,0
5975,,Irun - Gobaragin Kalea 2,43.33565958637978,-1.8064189052432928,9,0
5976,,"Irun - Andrearriaga, 14",43.33037955863291,-1.818228059669328,9,0
5977,,Irun - Elizatxo Hiribidea-piketazaharra,43.333844398155996,-1.8059116977256149,9,0
5978,,Irun - Elizatxo Hiribidea  36 - Oinaurre,43.33460083817691,-1.8041945522264788,9,0
5979,,"Irun - Monte Aldabe, 4",43.34024884346495,-1.8095859166641437,9,0
5980,,Irun - Monte Aldabe 49,43.34017438292789,-1.809352972415823,9,0
6156,,Irun - Euskal Herria Etorbidea-dirrección Larreaundi,43.33599863711958,-1.7923986239118659,9,0
7000,,"Pasai San Pedro - R.arrillaga,  6",43.32607235010284,-1.9285155050444274,1,0
7001,,Pasai San Pedro - Gran Sol 3,43.3268097928581,-1.9293782645461073,1,0
7002,,Pasai San Pedro - Borda-enea 2,43.32769692800971,-1.9308427983738217,1,0
7003,,Pasai San Pedro - Oiartzun 8,43.32659668245267,-1.9325888686797534,1,0
7004,,Pasai San Pedro - Ulia 22,43.32745077108438,-1.9363111907756936,1,0
7005,,Donostia - Azkuene 35,43.32761138968697,-1.937122450735926,1,0
7006,,Donostia - Azkuene Pza.,43.32636255259516,-1.9364535213473102,1,0
7011,,Donostia - Lau Haizeta Kalea - Martillun,43.314784417900945,-1.9346947401903771,1,0
7012,,Donostia - Lau Haizeta Kalea - Martillun,43.31489107604605,-1.9345448963124527,1,0
7013,,Donostia - Txapinene Kalea 11- San Martzial,43.31597852760054,-1.9333543616491196,1,0
7014,,Donostia - Txapinene Kalea 17- San Martzial,43.316021472635434,-1.933131635480172,1,0
7015,,"Oiartzun - Pikabene, 2",43.30238940062157,-1.86401844920487,1,0
7072,,Irun - Embajador Aristegi,43.34156384730252,-1.8104855020886677,9,0
7074,,Irun - Urdanibia Plaza,43.33894287816881,-1.7847286202400048,9,0
7195,,Hondarribia - Hondarribia -matxin Arzu-itsas Etxea,43.3691819582303,-1.7917404040409828,9,0
7250,,Pasaia - Molinao,43.31747184667102,-1.9150148732233319,1,0
