stop_id,stop_code,stop_name,stop_lat,stop_lon,zone_id,location_type
202,,Donostia - Tolosa Hiribidea - Amerika Plaza,43.30422970764316,-2.0024327678237275,1,0
203,,Donostia - Tolosa Hiribidea 77 - Unibertsitateak,43.309060842887625,-2.007113347475184,1,0
346,,Donostia - Tolosa Hiribidea - Magisteritza,43.31317413307454,-2.0079465715474845,1,0
373,,Beizama - Trintxera,43.13469333149109,-2.2143145273207603,4,0
374,,Azpeitia - Larrañaga,43.16612069677972,-2.24653622557444,4,0
377,,Donostia - Tolosa Hiribidea - Lorea,43.306899749450054,-2.0050400762851366,1,0
380,,Donostia - Zumalakarregi Hiribidea 11 - Esklabak,43.316685189277095,-2.000625847755013,1,0
414,,Zarautz - Nafarroa Kalea- Udaltzaingoa,43.28794926098642,-2.167895975436647,3,0
420,,"Donostia - Zumalakarregi Etorbidea, 14",43.31636025476848,-2.001568407229696,1,0
422,,Zarautz - Nafarroa Kalea-pilartxo-enea,43.28769618490335,-2.1616007033406577,3,0
423,,Zarautz - Bixkonde Kalea 15-erdigunea,43.288686143609624,-2.1739012459680596,3,0
424,,Zarautz -nafarroa Kalea 8  -erdigunea,43.288548773245125,-2.1735826177157724,3,0
425,,Zarautz - Nafarroa Kalea- Sanzenea,43.287861375689005,-2.168193004716093,3,0
426,,Zarautz - Nafarroa Kalea 54- Iñurritza,43.28750625640251,-2.1602597532869954,3,0
482,,"Donostia - Askatasunaren Etorbidea, 24",43.32147150991766,-1.9807775009036022,1,0
519,,Azpeitia - Atzaran-ugasaundi,43.1477735920769,-2.2309954323407197,4,0
531,,Zumarraga - Izazpi - Argixao Kirolgunea,43.08665774891668,-2.316115358682801,5,0
668,,Azpeitia - Atzaran-ugasaundi,43.147945082166366,-2.2310547732115267,4,0
669,,Azpeitia - Larrañaga,43.16585674328336,-2.246108908531151,4,0
670,,Azpeitia - Makibar,43.152575354341124,-2.2367034978863973,4,0
679,,Azpeitia - Makibar,43.15273964197997,-2.237033529403617,4,0
680,,Beizama - Trintxera,43.13392570904943,-2.213992380500772,4,0
826,,Donostia - Unibertsitatea,43.30873833122565,-2.0073035548455564,1,0
850,,Eibar - Untzaga,43.18588713366093,-2.4717721815269447,8,0
900,,Elgoibar - Txankakoa,43.217563392761825,-2.4157123685605093,8,0
937,,Tolosa - Ibaiondo Kalea 1,43.138753777271994,-2.0700884853839234,2,0
942,,Zumarraga - Zumarragako Ospitalea,43.08524648997548,-2.312027661477039,5,0
945,,Urretxu - Poblado Aparicio,43.08070438028632,-2.3250265719677943,5,0
985,,Elgoibar - San Antolin,43.22980852737398,-2.4015320991837976,8,0
987,,Elgoibar - Mupen,43.21941539408333,-2.4098708517046594,8,0
993,,Eibar - Azitain,43.19174707689859,-2.4540488155155837,8,0
999,,Eibar - Bidebarrieta,43.18752266621495,-2.4633160685340645,8,0
1000,,Eibar - Azitain,43.191699528543985,-2.4535200394555052,8,0
1008,,Elgoibar - San Antolin,43.229681114957025,-2.4012747390767,8,0
1032,,Azkoitia - Munategi,43.17611951520865,-2.289304398613686,4,0
1033,,Azpeitia - Loiola,43.17784162386491,-2.2781491571022783,4,0
1034,,Azpeitia - Anbulategia,43.18310779703,-2.266569426379456,4,0
1035,,Azpeitia - Sanjuandegi,43.180921242798654,-2.269634881655781,4,0
1037,,Azpeitia - Trenbidearen Museoa,43.18741531607162,-2.2600817719113695,4,0
1038,,Azpeitia - Danona,43.20996248737428,-2.2530507360743304,4,0
1039,,Azpeitia - Lasao,43.22107249102319,-2.2555377527155254,4,0
1040,,Zestoa - Alberdikoa,43.22736010763247,-2.257283723877532,4,0
1041,,Zestoa - Bainuetxea,43.23543945651678,-2.254845614284091,4,0
1042,,Zestoa - Zestoa,43.2425409037993,-2.2557321231270415,4,0
1043,,Aizarnazabal - Aizarnazabal,43.25414532287133,-2.234869395208997,3,0
1044,,Zumaia - Oikiako Bidegurutzea,43.27708122813724,-2.2270027238559416,3,0
1045,,Getaria - Meagas,43.28308434870387,-2.208142893257676,3,0
1046,,Getaria - Meagas,43.28317464247593,-2.2081786981746623,3,0
1047,,Zumaia - Oikiako Bidegurutzea,43.27692974504024,-2.2272387994456584,3,0
1048,,Aizarnazabal - Aizarnazabal Plaza,43.254314336339505,-2.2345592905647473,3,0
1049,,Zestoa - Zestoa,43.24148882759833,-2.25457481903367,4,0
1050,,Zestoa - Bainuetxea,43.233121266626966,-2.254233465690967,4,0
1051,,Zestoa - Alberdikoa,43.228787369988176,-2.257980629115298,4,0
1052,,Azpeitia - Lasao,43.218995294477324,-2.255981648729843,4,0
1053,,Azpeitia - Danona,43.20979334008499,-2.253348254201871,4,0
1054,,"Azpeitia - Julian Elorza Etorbidea, 3",43.1877125094625,-2.2614810823397864,4,0
1055,,Azpeitia - Anbulategia,43.1831987841168,-2.266715999980591,4,0
1056,,Azpeitia - Sanjuandegi,43.18105693221124,-2.2697317026327983,4,0
1057,,Azpeitia - Loiola,43.178078756765395,-2.278626227840391,4,0
1058,,Azpeitia - Munategi,43.17620963281647,-2.289315657317045,4,0
1059,,"Azkoitia - Julio Urkixo, 7",43.1801736523219,-2.307246752667881,4,0
1062,,Zumaia - Narrondo,43.28685153478599,-2.2639066466723703,3,0
1063,,Zestoa - Arroaerreka,43.265153592660354,-2.270020973188636,4,0
1066,,Zestoa - Iraeta,43.25670051527984,-2.25916945419824,4,0
1067,,"Azkoitia - Azkoitia -julio Urkixo, 40",43.176831184577985,-2.303999381376873,4,0
1068,,Azkoitia - San Martin,43.178173563443856,-2.3115512388114214,4,0
1070,,Azkoitia - Azkoitiko Industrialdea,43.17432134280572,-2.320895932814086,4,0
1073,,Azkoitia - Olotzaga,43.166977306188635,-2.3291827252265525,4,0
1075,,Azkoitia - Aizpurutxo,43.134937050148274,-2.3508412744486265,4,0
1080,,Azkoitia - Aizpurutxo,43.13478397707264,-2.350842893625595,4,0
1081,,Azkoitia - Olotzaga,43.1677663572605,-2.328608191529552,4,0
1082,,Azkoitia - Azkoitiko Industrialdea,43.17438561332099,-2.321104379724525,4,0
1083,,Azkoitia - Altzibar,43.177224115881984,-2.316901861472627,4,0
1084,,Azkoitia - San Martin,43.17799370238164,-2.3115901721686276,4,0
1085,,Azkoitia - Txerloia,43.175342049742135,-2.3004974458123977,4,0
1086,,Zestoa - Iraeta,43.25584051223118,-2.2584653285838217,4,0
1087,,Zestoa - Iraetako Geltokia,43.25698311033458,-2.2652891109335473,4,0
1088,,Zestoa - Arroaerreka,43.265612243128196,-2.269929239730044,4,0
1092,,Azpeitia - Garmendipe,43.18179637245905,-2.261478569109712,4,0
1093,,Azpeitia - Landeta,43.179483141809435,-2.2574582739400118,4,0
1094,,Errezil - Plaza,43.1667553144319,-2.1728521982932563,4,0
1097,,Tolosa - Renfe-jesuitinas,43.13652623528831,-2.0763439340114385,2,0
1100,,Albiztur - Santutxu,43.12383343949758,-2.1512658909260804,2,0
1101,,Bidania-goiatz - Toki Alai,43.139208442217,-2.1590950871419117,2,0
1102,,Bidania-goiatz - Zelai,43.135726246294595,-2.1582329243198703,2,0
1104,,Tolosa - Benta Haundi,43.128086994004036,-2.0862201915592338,2,0
1105,,Bidania-goiatz - Bidegoiango Plaza,43.14200521899184,-2.1585894711754383,2,0
1107,,Azpeitia - Landeta,43.17955485477643,-2.2574081868643865,4,0
1108,,Azpeitia - Garmendipe,43.18183151491509,-2.261342790926833,4,0
1109,,Bidania-goiatz - Plaza,43.14200594233838,-2.1586878368553077,2,0
1110,,Bidania-goiatz -  Toki Alai,43.13932675788423,-2.1592656154340153,2,0
1111,,Bidania-goiatz - Zelai,43.135726246294595,-2.1582329243198703,2,0
1112,,Albiztur - Santutxu,43.12352502682377,-2.150962823530592,2,0
1114,,Tolosa - Benta Haundi,43.12800537126248,-2.086147641888666,2,0
1118,,Zumaia - Zumaiako Geltokia,43.293811241718814,-2.249917266147499,3,0
1119,,Zestoa - Arroabea,43.27954593322813,-2.2662624595636696,4,0
1124,,"Eibar - San Juan Kalea, 7",43.18712672946801,-2.47110927159397,8,0
1140,,Tolosa - Oria Kalea - Zezen Plaza,43.1351878292646,-2.075638640926121,2,0
1251,,Tolosa - Nafarroa Hiribidea 1,43.13680023369768,-2.072368237888507,2,0
1408,,Eibar - Unibertsitatea,43.18204781174033,-2.486878955432266,8,0
1553,,"Ermua - Bizkaia Etorbidea, 11",43.18760789012477,-2.5020797129124217,8,0
1660,,Zumarraga - Renfe Geltokia,43.08895459311534,-2.319235113412041,5,0
1837,,Zestoa - Zestoa -arroabea,43.27047822020448,-2.270474896352102,4,0
2277,,Beizama - Santa Agueda,43.12443332098966,-2.1816961316412584,4,0
2278,,Azpeitia - Loiola,43.17776024332575,-2.2809554613252394,4,0
2446,,Eibar - Untzaga1,43.18635859945339,-2.4724695527239096,8,0
2862,,Donostia - Donostiako Autobus Geltokia,43.318441383329684,-1.9762281540370594,1,0
4035,,Azkoitia - Munibe,43.17895221599953,-2.3077773464844498,4,0
4038,,Donostia - Tolosa Hiribidea 13 - Magisteritza,43.31415400591716,-2.005686283302328,1,0
4039,,Zestoa - Arroabea,43.270396870461724,-2.270426576835119,4,0
4040,,Zestoa - Sebastopol,43.256144009806334,-2.258055088492711,4,0
4042,,Aizarnazabal - Zubialde,43.2621363763581,-2.2354593090181063,3,0
4043,,Aizarnazabal - Zubialde,43.262028741583954,-2.235522261440026,3,0
4044,,Aizarnazabal - Etxabe,43.26770657109582,-2.2335659020285,3,0
4045,,Aizarnazabal - Etxabe,43.26775266353478,-2.2337255129822644,3,0
4046,,Zarautz - San Inazio Kalea 23 - Igerain,43.28516204888485,-2.1771906114730766,3,0
4220,,Azpeitia - Irurena,43.18065813471926,-2.234889476808184,4,0
4221,,Errezil - Bentaberri,43.17615822318236,-2.203583240131911,4,0
4222,,Errezil - Loidi,43.172012675791365,-2.1941023038066345,4,0
4223,,Errezil - Intsausti,43.1696329800858,-2.1760612242864763,4,0
4224,,Errezil - Letea,43.166144554102196,-2.1656269845637803,4,0
4225,,Errezil - Egurbide,43.16600529972757,-2.161360167528144,4,0
4226,,Errezil - Ibarguren,43.16159483204643,-2.1603872250480314,4,0
4227,,Errezil - Ibarguren,43.16157239984061,-2.1597847893876794,4,0
4228,,Bidania-goiatz - Izagirre,43.14792905420182,-2.158409832253654,2,0
4229,,Errezil - Ostatua,43.15454290460603,-2.160225490986506,4,0
4231,,Albiztur - Gaiztarro,43.127480916814186,-2.138085429329171,2,0
4232,,Albiztur - Eliza,43.13156070474789,-2.1357781793670902,2,0
4233,,Albiztur - Arkatzpe,43.13127764378531,-2.130507698280549,2,0
4234,,Albiztur - Ugarte,43.13082065621284,-2.127256076208313,2,0
4235,,Tolosa - Otzarain,43.125964964273635,-2.091132387061671,2,0
4236,,Tolosa - Otzarain,43.12608181781789,-2.0911060694726604,2,0
4237,,Albiztur - Urreta,43.12699516626248,-2.1192333526401943,2,0
4238,,Albiztur - Urreta,43.12714007903562,-2.1193419190370837,2,0
4239,,Albiztur - Ugarte,43.13083716337693,-2.127059126204595,2,0
4240,,Albiztur - Arkatzpe,43.13131804857846,-2.1310849815729846,2,0
4241,,Albiztur - Eliza,43.13160581688691,-2.135789839001677,2,0
4242,,Albiztur - Gaiztarro,43.127427356596364,-2.1381476515111126,2,0
4243,,Bidania-goiatz - Izagirre,43.14753143590938,-2.1582185186422027,2,0
4244,,Errezil - Letea,43.16613411474531,-2.165430297995612,4,0
4245,,Errezil - Intsausti,43.16966052327932,-2.176134669042995,4,0
4246,,Errezil - Loidi,43.17215673861346,-2.1941004094794825,4,0
4247,,Errezil - Bentaberri,43.17624559259033,-2.204492587979121,4,0
4248,,Azpeitia - Irurena,43.18059642306871,-2.2350871227678737,4,0
4254,,Errezil - Ostatua,43.154522910621694,-2.1599551766510734,4,0
4255,,Errezil - Egurbide,43.16596118200751,-2.161483788644832,4,0
4315,,Elgoibar - Txankakoa,43.21745553006002,-2.4157503349141454,8,0
4316,,Eibar - Urkizu,43.18881166786072,-2.4616803308787674,8,0
4374,,Zumarraga - Izazpi 6,43.08672816782792,-2.3158442851406686,5,0
4376,,Urretxu - Ipiñarrieta/berriki,43.09029660108408,-2.3192816832852934,5,0
4380,,Zumarraga - Eliza,43.091046072320566,-2.31209790424871,5,0
4384,,Loiolako Ignazio Etorbidea 24-32 - Biribilgunea,43.179598474900224,-2.2754460756869364,4,0
4399,,Tolosa - Rondilla Kalea 34- Gorosabel,43.14111210326329,-2.072192376737802,2,0
4417,,Elgoibar - Urazandi,43.21818554368038,-2.412357483747308,8,0
4779,,Donostia - Zubieta Plaza,43.317645527314305,-1.9859470221536213,1,0
4780,,Donostia - Zubieta Plaza,43.31733227450812,-1.9861618795397475,1,0
4806,,"Zestoa-iraetabidea 10, Iraeta",43.256690793243486,-2.259058691823411,4,0
4828,,Zumarraga- Etxeberri,43.101628738388435,-2.315420321704804,5,0
4877,,"Donostia- Askatasuna/libertad, 3",43.32227790455279,-1.9783097088954409,1,0
4883,,Azpeitia- Nuarbe,43.13981384063727,-2.2324109280517757,4,0
5057,,Beizama - Beizama Bildua- Frontoia,43.135951760346906,-2.198412311318307,4,0
5062,,Azpeitia - Nuarbe,43.13971545582911,-2.2325105308871476,4,0
5063,,Azpeitia - Urrestilla,43.15920411611502,-2.2436691229066383,4,0
5319,,Azpeitia- Urrestila,43.15931248996908,-2.243716987875789,4,0
6022,,Elgoibar - Mupen,43.219244186012375,-2.4098478778913797,8,0
6027,,"Ermua - Baldespina Markesa, 14",43.18811444123367,-2.5026047646293943,8,0
6029,,Eibar - Unibertsitatea,43.18087759181836,-2.488980572346635,8,0
6048,,Zumarraga - Agiñera Bidegurutzea,43.11324681345565,-2.3217683069364696,5,0
6049,,Urretxu - Labeaga 14,43.09331854079893,-2.314136724427882,5,0
6058,,Zumaia - Patxita Etxezarreta,43.296368404038084,-2.2554087936214398,3,0
6062,,Zumarraga - Etxeberri,43.101358903846744,-2.315472483554192,5,0
6102,,Zumarraga - Agiñera Bidegurutzea,43.113345350550304,-2.3216811800857857,5,0
6103,,Azkoitia - Altzibar,43.17740390542147,-2.3168506409384735,4,0
6105,,Zestoa - Iraetako Geltokia,43.2568971665658,-2.264526299977142,4,0
6106,,Zestoa - Arroabea,43.279410716479816,-2.266239435234492,4,0
6107,,Zumaia - Narrondo,43.28646225397879,-2.2621856959455515,3,0
6108,,Zumaia - Patxita Etxezarreta,43.29602698879855,-2.2541431790724347,3,0
7008,,Zumaia - Zumaiako Geltokia,43.29364933402153,-2.2499439110961386,3,0
7738,,Zumarraga - San Gregorio 4,43.088609415753325,-2.3097170605594317,5,0
