stop_id,stop_code,stop_name,stop_lat,stop_lon,zone_id,location_type
7600,,"Ordizia - Joseba Rezolaren Pasealekua 2, Renfe Geltokia",43.052835316039484,-2.179161469409996,5,0
7202,,Beasain - Joan Iturralde 7 Parean,43.04600195672116,-2.197129007587978,5,0
7602,,Ordizia - Joseba Rezolaren Pasealekua,43.05282513467294,-2.1827716659890504,5,0
8100,,Zaldibia - Santa Fe  47,43.0365668920524,-2.150039019685139,5,0
7208,,Beasain - Ezkiaga 3,43.0518125878968,-2.1898086515043342,5,0
7900,,Idiazabal - Kale Nagusia 25 - Herrigunea,43.01173739399032,-2.2338238388650873,5,0
7401,,Olaberria - Harizti Industrialdea-  201 Poligonoa,43.02872939629895,-2.2191042706591233,5,0
7402,,Olaberria - Kari De La Cruz 2,43.0379427607518,-2.216654972011226,5,0
7209,,Beasain - Usategi- Aparkalekua,43.04682566265959,-2.210685372986444,5,0
8103,,Zaldibia - Elbarrena 11,43.041111943328545,-2.1509215907845456,5,0
8104,,Zaldibia - Santa Fe 18 -udaletxea,43.03818499366251,-2.1508760182396185,5,0
7800,,Segura - Zeraingo Bidegurutzea,43.005101655492574,-2.2613657251756583,5,0
7801,,Segura - Kale Nagusia 31,43.00837434417091,-2.2536330489008174,5,0
7802,,Segura - Aitzgorri 16,43.01088634003268,-2.252191492517193,5,0
7804,,Segura - Segura Barreiatua 28,43.013837196216656,-2.2503886124508194,5,0
7806,,Segura - Segura Barreiatua,43.00213017243854,-2.2669960035309775,5,0
7605,,Ordizia - Urdaneta  78,43.05465830589751,-2.1872907325358257,5,0
7213,,Beasain - Igartza Oleta 3- Antzizar Kiroldegia,43.046219955902295,-2.2142659812345364,5,0
8105,,Zaldibia - Elbarrena 32,43.047015306380736,-2.1540447143865262,5,0
7608,,Ordizia - Zaldibidea 7 Parean,43.05469968339425,-2.1679868251785193,5,0
7903,,Idiazabal - Kale Nagusia 8- Parean,43.01487819541682,-2.232189489193212,5,0
7904,,Idiazabal - Errota Industrialdea 3 - Idiazabalerantz,43.024198480805055,-2.2241938057282287,5,0
7410,,Olaberria - Harizti Industrialdea- Gasolindegia,43.035194950741044,-2.217782454336922,5,0
7411,,Olaberria - Basozabal Industrialdea 3,43.04143579615406,-2.2165245943210565,5,0
7214,,Beasain - Zaldizurreta 7,43.046504610749516,-2.194335377537534,5,0
7611,,Ordizia - Joseba Rezola Pasealekua,43.05339808074581,-2.176022759469801,5,0
7612,,Ordizia - Gudarien Etorbidea,43.0540321145745,-2.1715445844270698,5,0
7905,,Idiazabal - Landa Barreiatua 47 - Iturralde,43.023128316808744,-2.227066938729765,5,0
7807,,Segura - Segura Barreiatua 100 - Goardia Industrialdea,43.01700611411665,-2.2475152355437404,5,0
7810,,Segura - Segura Barreiatua 83,42.99546334086197,-2.2721540805665668,5,0
8302,,Zegama - Ondaraldea 17 - Segurarantz,42.98488357425742,-2.283759517631751,5,0
8304,,Zegama - Ondaraldea 4 - Zegamarantz,42.98362714901953,-2.287331057261388,5,0
8305,,Zegama - Plaza,42.97594984277514,-2.290878123060901,5,0
7215,,"Beasain - Barrendain Plaza 1, Renfe Geltokia",43.04634509699518,-2.2024162767957116,5,0
7907,,Idiazabal - Gi-2637 - Arimasagasti,43.02187589237024,-2.2376987595732585,5,0
8107,,Zaldibia - Elbarrena 57,43.04890589689535,-2.160096505562599,5,0
7909,,Idiazabal - Herrigune Barreiatua 7,43.02155739155099,-2.2304739649142027,5,0
8306,,Zegama - Ugarte Zelai,42.97225759326767,-2.29230627565755,5,0
8307,,Zegama - Barrenaldea Auzoa 6,42.98891184631304,-2.2770766198947108,5,0
8310,,Zegama - Hermanos Aseginolaza Kalea,42.97825279949714,-2.2890488084230274,5,0
7601,,Ordizia - Jose Arana,43.0552440990305,-2.177275121406365,5,0
7200,,Beasain - Oriamendi 32- Zelaeta Berri Plaza,43.04734085520361,-2.2031646128874423,5,0
7203,,Beasain - Ezkiaga 18 Parean,43.05179579648686,-2.189980777348588,5,0
7603,,Ordizia - Urdaneta 46,43.053841829030695,-2.183912421704094,5,0
7206,,Beasain - Igartza Oleta 2,43.04779192682717,-2.2097766802764958,5,0
7207,,Beasain - Igartza Oleta 14-  Loinazpe Institutua,43.04633768439257,-2.214362701221604,5,0
8102,,Zaldibia - Elbarren 11,43.04127547303829,-2.151115764558459,5,0
8300,,Zegama - Hermanos Aseginolaza  10,42.979065558980565,-2.289419642148135,5,0
7803,,Segura - Segura Barreiatua 24,43.01400900111442,-2.2504969653246243,5,0
7805,,Segura - Segura Barreiatua 66 - Biribilgunea,43.00520062397382,-2.261352269763576,5,0
7604,,Ordizia - Malkasko,43.05469440948219,-2.1873025352473614,5,0
7609,,Ordizia - Gudarien Etorbidea,43.053916572645036,-2.171754888471783,5,0
7610,,Ordizia - Bizkaia Pasealekua,43.053924456670444,-2.1753403485111704,5,0
7406,,Olaberria - N-1 Errepidea 7 - Industrialdea,43.04235447473928,-2.2165497350503287,5,0
7407,,Olaberria - Kari De La Cruz 12,43.03664607358287,-2.216659191027067,5,0
7408,,Olaberria - Harizti Industrialdea 1- Supermerkatua,43.03404467840375,-2.2181284995890342,5,0
7409,,Olaberria - Harizti Industrialgunea-  201 Poligonoa Parean,43.028918484649346,-2.2191018735074497,5,0
7901,,Idiazabal - Errota Industrialdea,43.02397828118916,-2.224920707782163,5,0
7902,,Idiazabal - Herrigune Barreiatua 2- Olaondo,43.02207864732059,-2.23032017856794,5,0
7808,,Segura - Segura Barreiatua 13 - Goardia Industrialdea,43.01741058076608,-2.2473998478877033,5,0
7809,,Segura - Segura Barreiatua 83,42.99551822509264,-2.272288377715965,5,0
8301,,Zegama - Ondaraldea 17  - Zegamarantz,42.985340726382226,-2.283423036350536,5,0
8303,,Zegama - Ondaraldea 4 - Segurarantz,42.98343080784003,-2.2876154275557035,5,0
7906,,Idiazabal - Kale Nagusia 8,43.01497798307998,-2.2322986902103503,5,0
7614,,Ordizia - Garagartza Plaza,43.05409506816377,-2.180286648886002,5,0
8108,,Zaldibia - Elbarrena 57 Parean - Ordiziarantz,43.04914369532538,-2.1605966743107494,5,0
7908,,Idiazabal - Gi-2637- Arimasagasti - Segurarantz,43.02197493920262,-2.2376975341160774,5,0
7811,,Segura - Segura Barreiatua,43.00205015460227,-2.2671564520624967,5,0
7910,,Idiazabal - Landa Barreiatua 40,43.023122022846835,-2.232823151337058,5,0
8308,,Zegama - Barrenaldea Auzoa 6 Parean,42.988921392969395,-2.277162372863534,5,0
8309,,Zegama - Elizalde Kalea 4,42.97620227091079,-2.290924277988731,5,0
7812,,Segura - Aitzgorri 16 Parean,43.010805782285075,-2.252266094430303,5,0
7813,,Segura - Kale Nagusia 31 Parean,43.00841952575242,-2.2536570424033835,5,0
7615,,Ordizia - Zaldibidea 7,43.054717512958184,-2.16796202514265,5,0
7218,,Beasain - San Inazio 10,43.04730234019161,-2.1976522802175604,5,0
7405,,Olaberria - Ihurre Gasolindegia,43.038809430871204,-2.2169754075640675,5,0
7412,,Olaberria - Basozabal Industrialdea 11,43.035790737493954,-2.2179958498299595,5,0
7613,,Ordizia - Oiangurenbidea,43.05239143290905,-2.1737891739859654,5,0
7607,,Ordizia - Goierri Campusa,43.04729758522427,-2.1829801112999627,5,0
7513,,Lazkao - Senpere 4,43.043845622285076,-2.191423616074454,5,0
7501,,Lazkao - Hirigoien  14,43.03199803842328,-2.1854907888062156,5,0
7404,,Olaberria - Zebazelai 9,43.02629911375102,-2.204872881541828,5,0
7508,,Lazkao - Errekalde,43.028871379401174,-2.1902945794802986,5,0
7414,,Olaberria - Gainera 10,43.03051043845322,-2.2109435809900098,5,0
7512,,Lazkao - Hirigoien  3,43.03317320315542,-2.186125832804817,5,0
7415,,Olaberria - Gainera 3,43.030554866992915,-2.2108570890474044,5,0
7516,,Lazkao - Errekalde Auzoa,43.02890783013564,-2.19035547208164,5,0
7417,,Olaberria - Jose Maria Aristrain 44 - Aristrain Kirolgunea,43.038065037029554,-2.2161009883284186,5,0
8201,,Legorreta - 1 Errepide Nazionala 15,43.0858827445724,-2.150696615696114,5,0
8900,,Itsasondo - Plaza,43.0675548883081,-2.1649880971691116,5,0
7100,,Ataun - Kaxeta,42.95830762862643,-2.1565851222396435,5,0
7504,,Lazkao - Elosegi 58 Parean,43.03700525169592,-2.188088445916985,5,0
7505,,Lazkao - Herrigunea,43.035291616591564,-2.186441554146986,5,0
7105,,Ataun - San Martin - Eliza,43.00692945370892,-2.1768650196997275,5,0
7106,,Ataun - Astigarraga 20,42.99886990334355,-2.1793649476292387,5,0
7107,,Ataun - San Gregorio 12,42.978329998413344,-2.180705153982012,5,0
7108,,Ataun - Ergoiena 5 - Parkea,42.96534576770435,-2.1758379331366737,5,0
8203,,Legorreta - Berostegi,43.077601440968756,-2.1596678110513823,5,0
7109,,Ataun - Ergoiena 20 Parean,42.96305372304085,-2.1689531886108098,5,0
7110,,Ataun - Aia 13 - Eliza,42.9663910747996,-2.1549419525002103,5,0
7111,,Ataun - Arrondo,42.99548051796956,-2.180133845601443,5,0
7112,,Ataun - Arin 7 Parean - Motasoro,42.98902405681414,-2.182672948897246,5,0
7113,,Ataun - Murkondo,42.982643712039916,-2.180745994245213,5,0
8204,,Legorreta - Renfe Geltokia,43.08500759776539,-2.1420228308591778,5,0
8205,,Legorreta - Guadalupe 11,43.08538531574136,-2.1455681013510115,5,0
7509,,Lazkao - Zubierreka Industri Poligonoa,43.02354773592514,-2.1811964088394693,5,0
7510,,Lazkao - Zubierreka 9,43.02058165897807,-2.1782044719949094,5,0
7114,,Ataun - Zubikoeta Industrigunea 6 Parean,43.015937389349446,-2.177272395198148,5,0
7115,,Ataun - Elbarrena Auzoa 72,43.00354000946412,-2.176370425855313,5,0
7116,,Ataun - Astigarraga 13 - Joxemiel Barandiaran Eskola,43.00154955602831,-2.1775748300538824,5,0
7121,,Ataun - Ergoiena 17,42.96428182612594,-2.173154608973014,5,0
7122,,Ataun - San Gregorio 30 Parean,42.97331316319187,-2.1805632796454812,5,0
7511,,Lazkao - Hirigoien 14 Parean,43.03181813055744,-2.185517717871147,5,0
7514,,Lazkao - Hirigoien 2,43.029386403531795,-2.1841996843653217,5,0
7606,,Ordizia - San Juan,43.05963912493957,-2.172365569485102,5,0
8902,,Itsasondo - Kale Nagusia 25- Anbulatorioa,43.069138555212305,-2.163590973205198,5,0
8202,,"Legorreta - Kale Nagusia 28, Herrigunea",43.08579142832727,-2.150525877557551,5,0
7101,,Ataun - Ergoiena 11 -parkea,42.96534585598471,-2.1758501936584813,5,0
7102,,Ataun - San Gregorio,42.97839188656578,-2.1805448964519947,5,0
7104,,Ataun - San Martin - Udaletxea,43.00696485259706,-2.1767786571803573,5,0
7500,,Lazkao - Hirigoien 34,43.02941245345881,-2.184064320400161,5,0
7502,,Lazkao - Elosegi - Eliza,43.035264342434594,-2.186405087607373,5,0
7503,,Lazkao - Elosegi 58,43.03694135190219,-2.1879665289036954,5,0
7117,,Ataun - Ergoiena 17 Parean,42.96433709117809,-2.173325529794081,5,0
7118,,Ataun - San Gregorio 30,42.97352087450678,-2.1806463650717127,5,0
7120,,Ataun - Otadi Aldea,43.01282689784388,-2.1754977893676926,5,0
7126,,Ataun - Elbarrena Auzoa 71,43.003062524480704,-2.1763399970828474,5,0
7103,,Ataun - Arrondo,42.99882435473793,-2.179291943673681,5,0
7517,,Lazkao - Zubierreka Auzoa 8,43.02061679425395,-2.178081276413386,5,0
8211,,Legorreta - Sagardotegia,43.08536022985601,-2.1458264477939175,5,0
7506,,Lazkao - Senpere 5,43.044509150998934,-2.1910220225327044,5,0
7700,,Zumarraga - Izazpi - Argixao Kirolgunea,43.084774544659886,-2.3174262882209455,5,0
7701,,Zumarraga - Zumarragako Ospitalea,43.08336333274065,-2.313338684986321,5,0
7210,,Beasain - Salbatore 5,43.04897994974045,-2.230831093313888,5,0
7507,,Lazkao - Lazkaibar,43.0496235023643,-2.1884131624719387,5,0
7704,,"Zumarraga - Eitzaga Biribilgunea, San Gregorio",43.086640215585376,-2.310193751227356,5,0
7705,,Zumarraga - Argixao 6,43.08369004062815,-2.3152638293737966,5,0
8401,,Ormaiztegi - Alegia 16,43.05300035267562,-2.2629399876720084,5,0
7706,,Zumarraga - Izazpi 6,43.08484496676687,-2.3171552244724545,5,0
7707,,Zumarraga - Elizkale Kalea 13,43.08892556047008,-2.3128711032383156,5,0
8501,,Ormaiztegi - Zumarralde  14,43.043782281829685,-2.2564451518181015,5,0
8005,,Ezkio-itsaso - Santa Luzia Biribilgunea (zumarragarantz),43.06260597276246,-2.2737919357288017,5,0
8006,,Ezkio-itsaso - Santa Luzia 19 Parean,43.07716593993567,-2.292316259306147,5,0
8503,,Ormaiztegi - Beasain Bidea 3- Aranberri,43.04302994670754,-2.244692700881721,5,0
7711,,Zumarraga - Renfe Geltokia,43.08705152086614,-2.3202390673947244,5,0
8010,,Ezkio-itsaso - Errekabarrena 1 Parean,43.06579041203244,-2.2775371166256297,5,0
8011,,Ezkio-itsaso - Santa Luzia 2,43.060044742310495,-2.27035904226296,5,0
8015,,"Santa Luzia-anduaga Auzoa 25, Udaletxea",43.06779063716459,-2.282008882892803,5,0
7211,,Beasain - Salbatore 2 Parean,43.04979865693864,-2.2280459161273196,5,0
8000,,Ezkio-itsaso - Santa Luzia-anduaga 31 - Udaletxea,43.067839355676035,-2.2825978567597467,5,0
7708,,"Zumarraga - Iparragirre Hiribidea 2 Parean, Eliza",43.089162917019486,-2.31340905159046,5,0
8003,,Ezkio-itsaso - Santa Luzia Biribilgunea- Beasainerantz,43.07551598058177,-2.2905295470358054,5,0
8004,,Ezkio-itsaso - Santa Luzia Anduaga 26,43.06250840624126,-2.274026427672977,5,0
8500,,Ormaiztegi - San Andres  17,43.04263131875336,-2.2525549343710316,5,0
8502,,Ormaiztegi - Beasain Bidea 21 Parean,43.04246225622502,-2.2460010340526995,5,0
7713,,Zumarraga - San Gregorio 4,43.086726287078534,-2.311028227556584,5,0
8012,,Ezkio-itsaso - Santa Luzia 2,43.059982260485974,-2.270445747137065,5,0
8014,,Ezkio-itsaso - Errekabarrena 1,43.06558284861669,-2.277465864111046,5,0
8506,,Ormaiztegi - Zumarraga Bidea 6 Parean,43.05210774451327,-2.262766492270927,5,0
8400,,Gabiria - Herrigunea,43.05049474186062,-2.2795584778208577,5,0
8403,,Gabiria - Ugarana Goikoa 12 -baztarrika,43.04820034087588,-2.2856016574692752,5,0
8404,,Gabiria - Zuazola 8- Arrondoko Kruzea,43.05117808391558,-2.292381836511262,5,0
8405,,Gabiria - Zuazola 5,43.050755393540776,-2.289562588710994,5,0
8407,,Gabiria - Ugarana,43.046665487426786,-2.2835199470535534,5,0
8002,,Ezkio-itsaso - Itsaso Hirigunea 6 - Eliza,43.07246979609726,-2.2574864094821825,5,0
8007,,Ezkio-itsaso - Gi-335,43.06334229711483,-2.256638641001698,5,0
8001,,Ezkio-itsaso - Ezkio Herrigunea 4,43.08090466914755,-2.2753202798525787,5,0
8008,,Ezkio-itsaso - Baserriak,43.07826168166218,-2.283176474622115,5,0
8016,,Ezkio-itsaso - Igartubeiti Museoa,43.07443708357599,-2.2850144390467895,5,0
8017,,Ezkio-itsaso - Ezkio Baserriak,43.07831570722766,-2.2831758448279245,5,0
8408,,Gabiria - Gabiria Erdigunea,43.05046749708167,-2.279521960710782,5,0
8409,,Gabiria - Bajada De Gabiria Hacia Pavimentos Arrondo,43.05071960492831,-2.2895998379534,5,0
8410,,Gabiria - Ugarana,43.04666594858084,-2.2835936091468954,5,0
8411,,Gabiria - Baztarrika,43.04824513250993,-2.285564302957353,5,0
8412,,Gabiria - Arrondo Kruzea,43.05121394936231,-2.2923568665396785,5,0
9000,,Arama - Herrigunea,43.062527682214,-2.164651055504864,5,0
8703,,Altzaga - Altzagako Bidea 1 - Herrigunea,43.064324571479844,-2.1542857105598174,5,0
8702,,Altzaga - Altzagako Bidea 4 - Herrigunea,43.06434985889977,-2.1540520160891723,5,0
8700,,Altzaga - Altzaga Sakabanatua 18 - Altzagarate,43.07022693332687,-2.1524113011324317,5,0
8701,,Altzaga - Abaliak Bidegurutzea,43.06278308617663,-2.147994415347636,5,0
8208,,Legorreta - Guadalupe 18,43.08533275948451,-2.145765401472825,5,0
8209,,"Legorreta - San Miguel Auzoa 7 Parean, Renfe Geltokia",43.08493639511217,-2.142134394299139,5,0
9100,,Mutiloa - Herrigunea - Irteera,43.02196157690821,-2.271595669696883,5,0
9200,,Zerain - Herrigunea,43.01215710549866,-2.2719078882671173,5,0
9201,,Zerain - Herrigunea,43.01218396240732,-2.271883028930627,5,0
8800,,Gaintza - Herrigunea,43.053415136987766,-2.1332294134295195,5,0
8801,,Gaintza - Barreiatua 40 - Mendizabal Baserria,43.05149275596275,-2.1302850070050283,5,0
8802,,Gaintza - Barreiatua 47 - Otegienea Baserria,43.046095811148575,-2.1251677653025007,5,0
7400,,Olaberria - Basozabal Industrialdea 11,43.03865845899864,-2.21728423488042,5,0
17,,"Donostia - Tolosa Hiribidea 77, Unibertsitateak",43.30718139051736,-2.0084386093288247,1,0
81,,"Donostia - Zumalakarregi Hiribidea 11, Esklabak",43.31480581816229,-2.001951478199909,1,0
1702,,"Tolosa - Izaskungo Aldapa 2a, Santa Klara Komentua",43.13653354256533,-2.0716837027665505,2,0
164,,Donostia - Donostiako Autobus Geltokia 2,43.316839747702076,-1.977364936365829,1,0
84,,Donostia - Zumalakarregi Etorbidea 14,43.31448087226719,-2.002894001575775,1,0
119,,"Donostia - Tolosa Hiribidea 70, Unibertsitatea",43.306876669205636,-2.008603854286989,1,0
130,,Donostia - Donostiako Autobus Geltokia,43.31619152063715,-1.9773758077975323,1,0
1736,,Tolosa - Rondilla Kalea 34,43.139312226107066,-2.073436936481452,2,0
7304,,"Legazpi - Urola Kalea 7, Industrialdea",43.054880110615734,-2.331486490002256,5,0
7306,,"Legazpi - Urola Kalea 7 Parean, Industrialdea",43.055122440038474,-2.3313487819720726,5,0
